[{"id": "6no8euaaUgKGE-HwCaYiYg", "alias": "california-caregivers-alliance-los-angeles-3", "name": "California Caregivers Alliance", "image_url": "https://s3-media2.fl.yelpcdn.com/bphoto/JaLYXdzLvVu3vbuccK9OEQ/o.jpg", "is_closed": false, "url": "https://www.yelp.com/biz/california-caregivers-alliance-los-angeles-3?adjust_creative=nKnicr6HZ6bapdL17PUcuQ&utm_campaign=yelp_api_v3&utm_medium=api_v3_business_search&utm_source=nKnicr6HZ6bapdL17PUcuQ", "review_count": 252, "categories": [{"alias": "cannabis_clinics", "title": "Cannabis Clinics"}, {"alias": "cannabisdispensaries", "title": "Cannabis Dispensaries"}], "rating": 4.5, "coordinates": {"latitude": 34.08235, "longitude": -118.272037}, "transactions": [], "location": {"address1": "2815 W Sunset Blvd", "address2": "Ste 201", "address3": "", "city": "Los Angeles", "zip_code": "90026", "country": "US", "state": "CA", "display_address": ["2815 W Sunset Blvd", "Ste 201", "Los Angeles, CA 90026"]}, "phone": "+12133530100", "display_phone": "(213) 353-0100", "distance": 5097.527040304035}, {"id": "wLViN-vumshh6CEchAlsEQ", "alias": "herbarium-west-hollywood", "name": "Herbarium", "image_url": "https://s3-media2.fl.yelpcdn.com/bphoto/QK77Ooh5ZyBsUCBNMQxWpA/o.jpg", "is_closed": false, "url": "https://www.yelp.com/biz/herbarium-west-hollywood?adjust_creative=nKnicr6HZ6bapdL17PUcuQ&utm_campaign=yelp_api_v3&utm_medium=api_v3_business_search&utm_source=nKnicr6HZ6bapdL17PUcuQ", "review_count": 263, "categories": [{"alias": "cannabisdispensaries", "title": "Cannabis Dispensaries"}], "rating": 4.5, "coordinates": {"latitude": 34.08853, "longitude": -118.3446}, "transactions": [], "price": "$$", "location": {"address1": "979 N La Brea Ave", "address2": null, "address3": "", "city": "West Hollywood", "zip_code": "90038", "country": "US", "state": "CA", "display_address": ["979 N La Brea Ave", "West Hollywood, CA 90038"]}, "phone": "+13234472037", "display_phone": "(323) 447-2037", "distance": 3684.146179986233}, {"id": "aAagpdwqDYNfVtlH39Csbg", "alias": "kushfly-los-angeles-5", "name": "Kushfly", "image_url": "https://s3-media1.fl.yelpcdn.com/bphoto/7LaiBUBA_t2w2irxevaunQ/o.jpg", "is_closed": false, "url": "https://www.yelp.com/biz/kushfly-los-angeles-5?adjust_creative=nKnicr6HZ6bapdL17PUcuQ&utm_campaign=yelp_api_v3&utm_medium=api_v3_business_search&utm_source=nKnicr6HZ6bapdL17PUcuQ", "review_count": 248, "categories": [{"alias": "cannabisdispensaries", "title": "Cannabis Dispensaries"}], "rating": 4.0, "coordinates": {"latitude": 34.127617, "longitude": -118.34671}, "transactions": [], "price": "$$", "location": {"address1": "", "address2": null, "address3": null, "city": "Los Angeles", "zip_code": "90068", "country": "US", "state": "CA", "display_address": ["Los Angeles, CA 90068"]}, "phone": "+18555710420", "display_phone": "(855) 571-0420", "distance": 7703.481319255708}, {"id": "QhnDjuYrldBQZdsDocN20g", "alias": "green-earth-collective-los-angeles-6", "name": "Green Earth Collective", "image_url": "https://s3-media2.fl.yelpcdn.com/bphoto/cSNSEz-Jd5z2kN-x_MYsGg/o.jpg", "is_closed": false, "url": "https://www.yelp.com/biz/green-earth-collective-los-angeles-6?adjust_creative=nKnicr6HZ6bapdL17PUcuQ&utm_campaign=yelp_api_v3&utm_medium=api_v3_business_search&utm_source=nKnicr6HZ6bapdL17PUcuQ", "review_count": 195, "categories": [{"alias": "cannabisdispensaries", "title": "Cannabis Dispensaries"}], "rating": 4.5, "coordinates": {"latitude": 34.12247, "longitude": -118.21067}, "transactions": [], "price": "$$", "location": {"address1": "4801 York Blvd", "address2": "", "address3": null, "city": "Los Angeles", "zip_code": "90042", "country": "US", "state": "CA", "display_address": ["4801 York Blvd", "Los Angeles, CA 90042"]}, "phone": "+13233490949", "display_phone": "(323) 349-0949", "distance": 12235.755168224698}, {"id": "xzqwc83ScbbWpFzwGvTZOA", "alias": "medmen-venice-beach-abbot-kinney-los-angeles-5", "name": "MedMen Venice Beach - Abbot Kinney", "image_url": "https://s3-media4.fl.yelpcdn.com/bphoto/uPS-Wu0Pfq_7umWUwLDfjg/o.jpg", "is_closed": false, "url": "https://www.yelp.com/biz/medmen-venice-beach-abbot-kinney-los-angeles-5?adjust_creative=nKnicr6HZ6bapdL17PUcuQ&utm_campaign=yelp_api_v3&utm_medium=api_v3_business_search&utm_source=nKnicr6HZ6bapdL17PUcuQ", "review_count": 173, "categories": [{"alias": "cannabisdispensaries", "title": "Cannabis Dispensaries"}], "rating": 4.5, "coordinates": {"latitude": 33.99088, "longitude": -118.46783}, "transactions": [], "price": "$$", "location": {"address1": "1310 Abbot Kinney Blvd", "address2": null, "address3": "", "city": "Los Angeles", "zip_code": "90291", "country": "US", "state": "CA", "display_address": ["1310 Abbot Kinney Blvd", "Los Angeles, CA 90291"]}, "phone": "+14243307232", "display_phone": "(424) 330-7232", "distance": 15620.155952213086}, {"id": "_PVsgnMe_ut8BcQSVhAVgw", "alias": "herb-los-angeles-3", "name": "HERB", "image_url": "https://s3-media3.fl.yelpcdn.com/bphoto/HSw89Daf0Tmxf7aUAXRC6g/o.jpg", "is_closed": false, "url": "https://www.yelp.com/biz/herb-los-angeles-3?adjust_creative=nKnicr6HZ6bapdL17PUcuQ&utm_campaign=yelp_api_v3&utm_medium=api_v3_business_search&utm_source=nKnicr6HZ6bapdL17PUcuQ", "review_count": 96, "categories": [{"alias": "cannabis_clinics", "title": "Cannabis Clinics"}, {"alias": "cannabisdispensaries", "title": "Cannabis Dispensaries"}], "rating": 4.5, "coordinates": {"latitude": 34.0434989929199, "longitude": -118.250205993652}, "transactions": [], "price": "$$", "location": {"address1": "", "address2": null, "address3": "", "city": "Los Angeles", "zip_code": "90014", "country": "US", "state": "CA", "display_address": ["Los Angeles, CA 90014"]}, "phone": "+18444372213", "display_phone": "(844) 437-2213", "distance": 6707.647988501463}, {"id": "ZpTitJcmD5345QVlVtBc3Q", "alias": "the-higher-path-sherman-oaks-9", "name": "The Higher Path", "image_url": "https://s3-media4.fl.yelpcdn.com/bphoto/tMLtX4nMJi4slPbF0Pf2Zg/o.jpg", "is_closed": false, "url": "https://www.yelp.com/biz/the-higher-path-sherman-oaks-9?adjust_creative=nKnicr6HZ6bapdL17PUcuQ&utm_campaign=yelp_api_v3&utm_medium=api_v3_business_search&utm_source=nKnicr6HZ6bapdL17PUcuQ", "review_count": 236, "categories": [{"alias": "cannabisdispensaries", "title": "Cannabis Dispensaries"}], "rating": 4.0, "coordinates": {"latitude": 34.1493390052598, "longitude": -118.439874686508}, "transactions": [], "price": "$$", "location": {"address1": "14080 Ventura Blvd", "address2": "", "address3": "", "city": "Sherman Oaks", "zip_code": "91423", "country": "US", "state": "CA", "display_address": ["14080 Ventura Blvd", "Sherman Oaks, CA 91423"]}, "phone": "+18183851224", "display_phone": "(818) 385-1224", "distance": 14636.50593655594}, {"id": "qCrSlf_TSVxITOYIBXGdJQ", "alias": "cannabis-cafe-west-hollywood", "name": "Cannabis Cafe", "image_url": "https://s3-media2.fl.yelpcdn.com/bphoto/CaA-BUOLFHxtnS7H3rs4wA/o.jpg", "is_closed": false, "url": "https://www.yelp.com/biz/cannabis-cafe-west-hollywood?adjust_creative=nKnicr6HZ6bapdL17PUcuQ&utm_campaign=yelp_api_v3&utm_medium=api_v3_business_search&utm_source=nKnicr6HZ6bapdL17PUcuQ", "review_count": 626, "categories": [{"alias": "cannabisdispensaries", "title": "Cannabis Dispensaries"}, {"alias": "cafes", "title": "Cafes"}], "rating": 3.5, "coordinates": {"latitude": 34.092688, "longitude": -118.344421}, "transactions": ["delivery"], "location": {"address1": "1201 N La Brea Ave", "address2": "", "address3": null, "city": "West Hollywood", "zip_code": "90038", "country": "US", "state": "CA", "display_address": ["1201 N La Brea Ave", "West Hollywood, CA 90038"]}, "phone": "+13239757676", "display_phone": "(323) 975-7676", "distance": 4057.181712948765}, {"id": "NcgdskgqNMrpM4K2nkWTIw", "alias": "extra-special-delivery-north-hollywood", "name": "Extra Special Delivery", "image_url": "https://s3-media3.fl.yelpcdn.com/bphoto/J4t_UjHnqg9yBvYOGIXt4w/o.jpg", "is_closed": false, "url": "https://www.yelp.com/biz/extra-special-delivery-north-hollywood?adjust_creative=nKnicr6HZ6bapdL17PUcuQ&utm_campaign=yelp_api_v3&utm_medium=api_v3_business_search&utm_source=nKnicr6HZ6bapdL17PUcuQ", "review_count": 102, "categories": [{"alias": "cannabisdispensaries", "title": "Cannabis Dispensaries"}], "rating": 4.5, "coordinates": {"latitude": 34.167, "longitude": -118.37364}, "transactions": [], "price": "$", "location": {"address1": "", "address2": null, "address3": "", "city": "North Hollywood", "zip_code": "91601", "country": "US", "state": "CA", "display_address": ["North Hollywood, CA 91601"]}, "phone": "+18886549872", "display_phone": "(888) 654-9872", "distance": 12234.322815306645}, {"id": "IyyaTRg3o4fTkyqjHZ709g", "alias": "the-high-note-culver-city-los-angeles-2", "name": "The High Note - Culver City", "image_url": "https://s3-media2.fl.yelpcdn.com/bphoto/Nv2HsWlQMMj61tr2-W8wug/o.jpg", "is_closed": false, "url": "https://www.yelp.com/biz/the-high-note-culver-city-los-angeles-2?adjust_creative=nKnicr6HZ6bapdL17PUcuQ&utm_campaign=yelp_api_v3&utm_medium=api_v3_business_search&utm_source=nKnicr6HZ6bapdL17PUcuQ", "review_count": 61, "categories": [{"alias": "cannabisdispensaries", "title": "Cannabis Dispensaries"}, {"alias": "cannabis_clinics", "title": "Cannabis Clinics"}], "rating": 4.5, "coordinates": {"latitude": 34.02582, "longitude": -118.3607}, "transactions": [], "price": "$$", "location": {"address1": "5277 W Jefferson Blvd", "address2": null, "address3": "", "city": "Los Angeles", "zip_code": "90016", "country": "US", "state": "CA", "display_address": ["5277 W Jefferson Blvd", "Los Angeles, CA 90016"]}, "phone": "+12134651646", "display_phone": "(213) 465-1646", "distance": 5383.988826333522}, {"id": "cZ66M6Fi7yOP2CUwjSYSFA", "alias": "exhale-med-center-los-angeles-2", "name": "Exhale Med Center", "image_url": "https://s3-media4.fl.yelpcdn.com/bphoto/VOhj1X1GhvoW8ILnx4NHcw/o.jpg", "is_closed": false, "url": "https://www.yelp.com/biz/exhale-med-center-los-angeles-2?adjust_creative=nKnicr6HZ6bapdL17PUcuQ&utm_campaign=yelp_api_v3&utm_medium=api_v3_business_search&utm_source=nKnicr6HZ6bapdL17PUcuQ", "review_count": 155, "categories": [{"alias": "cannabisdispensaries", "title": "Cannabis Dispensaries"}, {"alias": "cannabiscollective", "title": "Cannabis Collective"}], "rating": 4.0, "coordinates": {"latitude": 34.089008, "longitude": -118.376229}, "transactions": [], "location": {"address1": "980 N La Cienega Blvd", "address2": "Ste 102", "address3": "", "city": "Los Angeles", "zip_code": "90069", "country": "US", "state": "CA", "display_address": ["980 N La Cienega Blvd", "Ste 102", "Los Angeles, CA 90069"]}, "phone": "+14242799497", "display_phone": "(424) 279-9497", "distance": 5900.400679524662}, {"id": "xPgf4fqUceL_6-yH0-c8IA", "alias": "wellness-earth-energy-dispensary-studio-city-4", "name": "Wellness Earth Energy Dispensary", "image_url": "https://s3-media1.fl.yelpcdn.com/bphoto/3eVW22mWKRZW0F83ROEkBg/o.jpg", "is_closed": false, "url": "https://www.yelp.com/biz/wellness-earth-energy-dispensary-studio-city-4?adjust_creative=nKnicr6HZ6bapdL17PUcuQ&utm_campaign=yelp_api_v3&utm_medium=api_v3_business_search&utm_source=nKnicr6HZ6bapdL17PUcuQ", "review_count": 140, "categories": [{"alias": "cannabisdispensaries", "title": "Cannabis Dispensaries"}], "rating": 4.0, "coordinates": {"latitude": 34.1398523, "longitude": -118.3834097}, "transactions": [], "location": {"address1": "11557 Ventura Blvd", "address2": "", "address3": "", "city": "Studio City", "zip_code": "91604", "country": "US", "state": "CA", "display_address": ["11557 Ventura Blvd", "Studio City, CA 91604"]}, "phone": "+18189802266", "display_phone": "(818) 980-2266", "distance": 10409.196966838643}, {"id": "wc5I4zMTqo9vaKM49mwixQ", "alias": "medmen-los-angeles-lax-airport-los-angeles-4", "name": "MedMen Los Angeles - LAX Airport", "image_url": "https://s3-media4.fl.yelpcdn.com/bphoto/t4pvlO12oTDRLD3c1FmCxA/o.jpg", "is_closed": false, "url": "https://www.yelp.com/biz/medmen-los-angeles-lax-airport-los-angeles-4?adjust_creative=nKnicr6HZ6bapdL17PUcuQ&utm_campaign=yelp_api_v3&utm_medium=api_v3_business_search&utm_source=nKnicr6HZ6bapdL17PUcuQ", "review_count": 207, "categories": [{"alias": "cannabisdispensaries", "title": "Cannabis Dispensaries"}], "rating": 4.0, "coordinates": {"latitude": 33.95765, "longitude": -118.39575}, "transactions": [], "price": "$$", "location": {"address1": "8740 S Sepulveda Blvd", "address2": "Ste 105", "address3": "", "city": "Los Angeles", "zip_code": "90045", "country": "US", "state": "CA", "display_address": ["8740 S Sepulveda Blvd", "Ste 105", "Los Angeles, CA 90045"]}, "phone": "+14242908030", "display_phone": "(424) 290-8030", "distance": 13430.814243995977}, {"id": "whSTaTuy4eWlRo5cPiIOeA", "alias": "buds-and-roses-studio-city", "name": "Buds & Roses", "image_url": "https://s3-media3.fl.yelpcdn.com/bphoto/mOVblgXDAnwXPQ7GlAJM9g/o.jpg", "is_closed": false, "url": "https://www.yelp.com/biz/buds-and-roses-studio-city?adjust_creative=nKnicr6HZ6bapdL17PUcuQ&utm_campaign=yelp_api_v3&utm_medium=api_v3_business_search&utm_source=nKnicr6HZ6bapdL17PUcuQ", "review_count": 196, "categories": [{"alias": "cannabisdispensaries", "title": "Cannabis Dispensaries"}], "rating": 4.0, "coordinates": {"latitude": 34.146006, "longitude": -118.417692}, "transactions": [], "location": {"address1": "13047 Ventura Blvd", "address2": null, "address3": "", "city": "Studio City", "zip_code": "91604", "country": "US", "state": "CA", "display_address": ["13047 Ventura Blvd", "Studio City, CA 91604"]}, "phone": "+18189078852", "display_phone": "(818) 907-8852", "distance": 12912.914014168446}, {"id": "MBdtzD8eCUIgOdwwF89xdA", "alias": "mecca-mid-city-los-angeles", "name": "Mecca Mid City", "image_url": "https://s3-media1.fl.yelpcdn.com/bphoto/aOYqD2GbIyl-yWIBUlPc4g/o.jpg", "is_closed": false, "url": "https://www.yelp.com/biz/mecca-mid-city-los-angeles?adjust_creative=nKnicr6HZ6bapdL17PUcuQ&utm_campaign=yelp_api_v3&utm_medium=api_v3_business_search&utm_source=nKnicr6HZ6bapdL17PUcuQ", "review_count": 157, "categories": [{"alias": "cannabisdispensaries", "title": "Cannabis Dispensaries"}], "rating": 4.0, "coordinates": {"latitude": 34.0344467, "longitude": -118.3695938}, "transactions": [], "price": "$", "location": {"address1": "5738 W Washington Blvd", "address2": "", "address3": "", "city": "Los Angeles", "zip_code": "90016", "country": "US", "state": "CA", "display_address": ["5738 W Washington Blvd", "Los Angeles, CA 90016"]}, "phone": "+13238799731", "display_phone": "(323) 879-9731", "distance": 5370.342042610866}, {"id": "Ff5xQfw3hgK46N8bp1lVKg", "alias": "exhalence-la-los-angeles", "name": "Exhalence LA", "image_url": "https://s3-media2.fl.yelpcdn.com/bphoto/KHgBwUxz1F0jmFrjYSudBw/o.jpg", "is_closed": false, "url": "https://www.yelp.com/biz/exhalence-la-los-angeles?adjust_creative=nKnicr6HZ6bapdL17PUcuQ&utm_campaign=yelp_api_v3&utm_medium=api_v3_business_search&utm_source=nKnicr6HZ6bapdL17PUcuQ", "review_count": 114, "categories": [{"alias": "cannabisdispensaries", "title": "Cannabis Dispensaries"}], "rating": 4.5, "coordinates": {"latitude": 34.221854, "longitude": -118.359567}, "transactions": [], "price": "$$", "location": {"address1": "10467 Roscoe Blvd", "address2": "", "address3": null, "city": "Los Angeles", "zip_code": "91352", "country": "US", "state": "CA", "display_address": ["10467 Roscoe Blvd", "Los Angeles, CA 91352"]}, "phone": "+18183949094", "display_phone": "(818) 394-9094", "distance": 18163.790194203957}, {"id": "u1WlK0iGDBd-hJqxDKnO_A", "alias": "top-shelf-marijuana-delivery-west-hollywood", "name": "Top Shelf Marijuana Delivery", "image_url": "https://s3-media3.fl.yelpcdn.com/bphoto/-6SfzI0c09TzIxKS66sxCQ/o.jpg", "is_closed": false, "url": "https://www.yelp.com/biz/top-shelf-marijuana-delivery-west-hollywood?adjust_creative=nKnicr6HZ6bapdL17PUcuQ&utm_campaign=yelp_api_v3&utm_medium=api_v3_business_search&utm_source=nKnicr6HZ6bapdL17PUcuQ", "review_count": 76, "categories": [{"alias": "cannabisdispensaries", "title": "Cannabis Dispensaries"}], "rating": 4.5, "coordinates": {"latitude": 34.0481082894615, "longitude": -118.23486365625}, "transactions": [], "price": "$$$$", "location": {"address1": "", "address2": null, "address3": "", "city": "West Hollywood", "zip_code": "90046", "country": "US", "state": "CA", "display_address": ["West Hollywood, CA 90046"]}, "phone": "+13234948861", "display_phone": "(323) 494-8861", "distance": 8110.126446566635}, {"id": "KeW8lAw6C1m6LkYwTOCs9g", "alias": "organic-kind-los-angeles-2", "name": "Organic Kind", "image_url": "https://s3-media1.fl.yelpcdn.com/bphoto/wNeC_zmwz39tED5xWhen5w/o.jpg", "is_closed": false, "url": "https://www.yelp.com/biz/organic-kind-los-angeles-2?adjust_creative=nKnicr6HZ6bapdL17PUcuQ&utm_campaign=yelp_api_v3&utm_medium=api_v3_business_search&utm_source=nKnicr6HZ6bapdL17PUcuQ", "review_count": 42, "categories": [{"alias": "cannabis_clinics", "title": "Cannabis Clinics"}, {"alias": "cannabisdispensaries", "title": "Cannabis Dispensaries"}], "rating": 5.0, "coordinates": {"latitude": 34.0770492553711, "longitude": -118.25887298584}, "transactions": [], "price": "$$$", "location": {"address1": "", "address2": null, "address3": "", "city": "Los Angeles", "zip_code": "90026", "country": "US", "state": "CA", "display_address": ["Los Angeles, CA 90026"]}, "phone": "+13235740248", "display_phone": "(323) 574-0248", "distance": 6128.042287959515}, {"id": "Dmg_SQwRZoBWt4asYHBuaw", "alias": "firehaus-los-angeles-6", "name": "FireHaus", "image_url": "https://s3-media3.fl.yelpcdn.com/bphoto/FaLOSGba5tMbAY051BxUQg/o.jpg", "is_closed": false, "url": "https://www.yelp.com/biz/firehaus-los-angeles-6?adjust_creative=nKnicr6HZ6bapdL17PUcuQ&utm_campaign=yelp_api_v3&utm_medium=api_v3_business_search&utm_source=nKnicr6HZ6bapdL17PUcuQ", "review_count": 140, "categories": [{"alias": "cannabisdispensaries", "title": "Cannabis Dispensaries"}], "rating": 4.5, "coordinates": {"latitude": 34.042108, "longitude": -118.4416266}, "transactions": [], "price": "$$", "location": {"address1": "2000 Cotner Ave", "address2": null, "address3": "", "city": "Los Angeles", "zip_code": "90025", "country": "US", "state": "CA", "display_address": ["2000 Cotner Ave", "Los Angeles, CA 90025"]}, "phone": "+13235159333", "display_phone": "(323) 515-9333", "distance": 11287.876237505106}, {"id": "lCjKTY7eRixYnDGaMcRrkw", "alias": "organic-cbd-nugs-hemp-flower-los-angeles-3", "name": "Organic CBD Nugs - Hemp Flower", "image_url": "https://s3-media2.fl.yelpcdn.com/bphoto/uTjMdmU1_fqEHaeL_KwjIQ/o.jpg", "is_closed": false, "url": "https://www.yelp.com/biz/organic-cbd-nugs-hemp-flower-los-angeles-3?adjust_creative=nKnicr6HZ6bapdL17PUcuQ&utm_campaign=yelp_api_v3&utm_medium=api_v3_business_search&utm_source=nKnicr6HZ6bapdL17PUcuQ", "review_count": 34, "categories": [{"alias": "cannabisdispensaries", "title": "Cannabis Dispensaries"}], "rating": 5.0, "coordinates": {"latitude": 34.02969, "longitude": -118.24137}, "transactions": [], "location": {"address1": null, "address2": null, "address3": null, "city": "Los Angeles", "zip_code": "90021", "country": "US", "state": "CA", "display_address": ["Los Angeles, CA 90021"]}, "phone": "+18445009888", "display_phone": "(844) 500-9888", "distance": 8401.25953713628}, {"id": "DiW9P3nppG7uBLEdIjH-zQ", "alias": "barc-collective-los-angeles-4", "name": "BARC Collective", "image_url": "https://s3-media3.fl.yelpcdn.com/bphoto/Vx4dCjJx0nXHhVR27avbnQ/o.jpg", "is_closed": false, "url": "https://www.yelp.com/biz/barc-collective-los-angeles-4?adjust_creative=nKnicr6HZ6bapdL17PUcuQ&utm_campaign=yelp_api_v3&utm_medium=api_v3_business_search&utm_source=nKnicr6HZ6bapdL17PUcuQ", "review_count": 83, "categories": [{"alias": "cannabisdispensaries", "title": "Cannabis Dispensaries"}], "rating": 4.5, "coordinates": {"latitude": 34.07077, "longitude": -118.37564}, "transactions": [], "location": {"address1": "432 S San Vicente Blvd", "address2": "Ste 100", "address3": "", "city": "Los Angeles", "zip_code": "90048", "country": "US", "state": "CA", "display_address": ["432 S San Vicente Blvd", "Ste 100", "Los Angeles, CA 90048"]}, "phone": "+18552272420", "display_phone": "(855) 227-2420", "distance": 5106.811799621446}, {"id": "gp2gLY2UOdsoB-TwEMypRw", "alias": "fast-and-friendly-delivery-service-hermosa-beach-4", "name": "Fast & Friendly Delivery Service", "image_url": "https://s3-media1.fl.yelpcdn.com/bphoto/omltNVcHlZQ2ZbnSF58LHQ/o.jpg", "is_closed": false, "url": "https://www.yelp.com/biz/fast-and-friendly-delivery-service-hermosa-beach-4?adjust_creative=nKnicr6HZ6bapdL17PUcuQ&utm_campaign=yelp_api_v3&utm_medium=api_v3_business_search&utm_source=nKnicr6HZ6bapdL17PUcuQ", "review_count": 168, "categories": [{"alias": "cannabisdispensaries", "title": "Cannabis Dispensaries"}], "rating": 4.5, "coordinates": {"latitude": 33.8649142, "longitude": -118.3944767}, "transactions": [], "location": {"address1": "703 Pier Ave", "address2": "Ste B", "address3": "", "city": "Hermosa Beach", "zip_code": "90254", "country": "US", "state": "CA", "display_address": ["703 Pier Ave", "Ste B", "Hermosa Beach, CA 90254"]}, "phone": "+13108707115", "display_phone": "(310) 870-7115", "distance": 22890.142771937833}, {"id": "bJWklpne8eNA9pLpacsd0A", "alias": "medmen-los-angeles-west-hollywood-west-hollywood-3", "name": "MedMen Los Angeles - West Hollywood", "image_url": "https://s3-media4.fl.yelpcdn.com/bphoto/XBpYijPLA7c29y8cCEqt4g/o.jpg", "is_closed": false, "url": "https://www.yelp.com/biz/medmen-los-angeles-west-hollywood-west-hollywood-3?adjust_creative=nKnicr6HZ6bapdL17PUcuQ&utm_campaign=yelp_api_v3&utm_medium=api_v3_business_search&utm_source=nKnicr6HZ6bapdL17PUcuQ", "review_count": 534, "categories": [{"alias": "cannabisdispensaries", "title": "Cannabis Dispensaries"}], "rating": 4.0, "coordinates": {"latitude": 34.0905911417357, "longitude": -118.367290442404}, "transactions": [], "price": "$$", "location": {"address1": "8208 Santa Monica Blvd", "address2": "", "address3": "", "city": "West Hollywood", "zip_code": "90046", "country": "US", "state": "CA", "display_address": ["8208 Santa Monica Blvd", "West Hollywood, CA 90046"]}, "phone": "+13235791449", "display_phone": "(323) 579-1449", "distance": 5317.7785142899365}, {"id": "dg4aVcZ-Y8gIRsiR13jSIg", "alias": "california-cannabis-melrose-los-angeles-4", "name": "California Cannabis Melrose", "image_url": "https://s3-media4.fl.yelpcdn.com/bphoto/jzt42tZFsvVZqVWS-Z2x-g/o.jpg", "is_closed": false, "url": "https://www.yelp.com/biz/california-cannabis-melrose-los-angeles-4?adjust_creative=nKnicr6HZ6bapdL17PUcuQ&utm_campaign=yelp_api_v3&utm_medium=api_v3_business_search&utm_source=nKnicr6HZ6bapdL17PUcuQ", "review_count": 50, "categories": [{"alias": "cannabisdispensaries", "title": "Cannabis Dispensaries"}], "rating": 4.5, "coordinates": {"latitude": 34.08318, "longitude": -118.30991}, "transactions": [], "price": "$$", "location": {"address1": "654 N Manhattan Pl", "address2": null, "address3": "", "city": "Los Angeles", "zip_code": "90004", "country": "US", "state": "CA", "display_address": ["654 N Manhattan Pl", "Los Angeles, CA 90004"]}, "phone": "+18555254872", "display_phone": "(855) 525-4872", "distance": 2622.2309322346277}, {"id": "wY47dPJKXx1YxdjSu4GOsQ", "alias": "universal-collective-los-angeles", "name": "Universal Collective", "image_url": "https://s3-media4.fl.yelpcdn.com/bphoto/YlYfggyEYXMnTdNU7fw0cA/o.jpg", "is_closed": false, "url": "https://www.yelp.com/biz/universal-collective-los-angeles?adjust_creative=nKnicr6HZ6bapdL17PUcuQ&utm_campaign=yelp_api_v3&utm_medium=api_v3_business_search&utm_source=nKnicr6HZ6bapdL17PUcuQ", "review_count": 64, "categories": [{"alias": "cannabisdispensaries", "title": "Cannabis Dispensaries"}], "rating": 4.5, "coordinates": {"latitude": 34.1343, "longitude": -118.36019}, "transactions": [], "price": "$$", "location": {"address1": "3625 Cahuenga Blvd W", "address2": "", "address3": "", "city": "Los Angeles", "zip_code": "90068", "country": "US", "state": "CA", "display_address": ["3625 Cahuenga Blvd W", "Los Angeles, CA 90068"]}, "phone": "+13238501847", "display_phone": "(323) 850-1847", "distance": 8849.821599854096}, {"id": "dvigMYUBs-wZuwr1CS5UZA", "alias": "mary-janes-collective-los-angeles", "name": "Mary Jane's Collective", "image_url": "https://s3-media3.fl.yelpcdn.com/bphoto/4BRoMneftsqlIGIuxmIRUQ/o.jpg", "is_closed": false, "url": "https://www.yelp.com/biz/mary-janes-collective-los-angeles?adjust_creative=nKnicr6HZ6bapdL17PUcuQ&utm_campaign=yelp_api_v3&utm_medium=api_v3_business_search&utm_source=nKnicr6HZ6bapdL17PUcuQ", "review_count": 97, "categories": [{"alias": "cannabisdispensaries", "title": "Cannabis Dispensaries"}], "rating": 4.0, "coordinates": {"latitude": 34.0836418, "longitude": -118.3072488}, "transactions": [], "location": {"address1": "4901 Melrose Ave", "address2": "", "address3": "", "city": "Los Angeles", "zip_code": "90029", "country": "US", "state": "CA", "display_address": ["4901 Melrose Ave", "Los Angeles, CA 90029"]}, "phone": "+13234666636", "display_phone": "(323) 466-6636", "distance": 2785.6133123056034}, {"id": "iBOpiHyJYkr2WyQXaQ8MKA", "alias": "sweet-flower-melrose-los-angeles-2", "name": "Sweet Flower Melrose", "image_url": "https://s3-media4.fl.yelpcdn.com/bphoto/gSelbCAsB1RIRKcCfJul6w/o.jpg", "is_closed": false, "url": "https://www.yelp.com/biz/sweet-flower-melrose-los-angeles-2?adjust_creative=nKnicr6HZ6bapdL17PUcuQ&utm_campaign=yelp_api_v3&utm_medium=api_v3_business_search&utm_source=nKnicr6HZ6bapdL17PUcuQ", "review_count": 74, "categories": [{"alias": "cannabisdispensaries", "title": "Cannabis Dispensaries"}], "rating": 4.5, "coordinates": {"latitude": 34.083985, "longitude": -118.3674}, "transactions": [], "price": "$$", "location": {"address1": "8163 Melrose Ave", "address2": null, "address3": null, "city": "Los Angeles", "zip_code": "90046", "country": "US", "state": "CA", "display_address": ["8163 Melrose Ave", "Los Angeles, CA 90046"]}, "phone": "+13235912662", "display_phone": "(323) 591-2662", "distance": 4916.0433400712245}, {"id": "19OKybHIpT9UatfrOMfq_g", "alias": "rose-collective-venice", "name": "Rose Collective", "image_url": "https://s3-media4.fl.yelpcdn.com/bphoto/EEIgnKAB8FzzmcG5LvLe6Q/o.jpg", "is_closed": false, "url": "https://www.yelp.com/biz/rose-collective-venice?adjust_creative=nKnicr6HZ6bapdL17PUcuQ&utm_campaign=yelp_api_v3&utm_medium=api_v3_business_search&utm_source=nKnicr6HZ6bapdL17PUcuQ", "review_count": 146, "categories": [{"alias": "cannabisdispensaries", "title": "Cannabis Dispensaries"}], "rating": 4.0, "coordinates": {"latitude": 33.9979274, "longitude": -118.474851}, "transactions": [], "location": {"address1": "411 Rose Ave", "address2": null, "address3": "", "city": "Venice", "zip_code": "90291", "country": "US", "state": "CA", "display_address": ["411 Rose Ave", "Venice, CA 90291"]}, "phone": "+13103923890", "display_phone": "(310) 392-3890", "distance": 15815.357203973888}, {"id": "U-PmQYx3vgnE3fZJ8RkNwQ", "alias": "cornerstone-wellness-los-angeles", "name": "Cornerstone Wellness", "image_url": "https://s3-media2.fl.yelpcdn.com/bphoto/R87bj8U-DJoKMKZ-el-ueQ/o.jpg", "is_closed": false, "url": "https://www.yelp.com/biz/cornerstone-wellness-los-angeles?adjust_creative=nKnicr6HZ6bapdL17PUcuQ&utm_campaign=yelp_api_v3&utm_medium=api_v3_business_search&utm_source=nKnicr6HZ6bapdL17PUcuQ", "review_count": 139, "categories": [{"alias": "cannabisdispensaries", "title": "Cannabis Dispensaries"}], "rating": 4.0, "coordinates": {"latitude": 34.1418972, "longitude": -118.2220956}, "transactions": [], "price": "$$", "location": {"address1": "2551 Colorado Blvd", "address2": "", "address3": "", "city": "Los Angeles", "zip_code": "90041", "country": "US", "state": "CA", "display_address": ["2551 Colorado Blvd", "Los Angeles, CA 90041"]}, "phone": "+13232598933", "display_phone": "(323) 259-8933", "distance": 12802.976466788015}, {"id": "Xuk1JA_CUuIVUGQKh82LxQ", "alias": "ganjarunner-los-angeles-2", "name": "Ganjarunner", "image_url": "https://s3-media3.fl.yelpcdn.com/bphoto/8OOUFldjqldmi1nsfCZGEA/o.jpg", "is_closed": false, "url": "https://www.yelp.com/biz/ganjarunner-los-angeles-2?adjust_creative=nKnicr6HZ6bapdL17PUcuQ&utm_campaign=yelp_api_v3&utm_medium=api_v3_business_search&utm_source=nKnicr6HZ6bapdL17PUcuQ", "review_count": 114, "categories": [{"alias": "cannabisdispensaries", "title": "Cannabis Dispensaries"}], "rating": 4.0, "coordinates": {"latitude": 34.10161, "longitude": -118.30206}, "transactions": [], "location": {"address1": "", "address2": "", "address3": "", "city": "Los Angeles", "zip_code": "90027", "country": "US", "state": "CA", "display_address": ["Los Angeles, CA 90027"]}, "phone": "+12563339422", "display_phone": "(256) 333-9422", "distance": 7193.980371228938}, {"id": "aLRu5CfRvdo_rxe-YVGmqw", "alias": "mota-medicine-of-the-angels-los-angeles", "name": "MOTA Medicine Of The Angels", "image_url": "https://s3-media1.fl.yelpcdn.com/bphoto/h_U6LzsR_OGtunBuvNovtg/o.jpg", "is_closed": false, "url": "https://www.yelp.com/biz/mota-medicine-of-the-angels-los-angeles?adjust_creative=nKnicr6HZ6bapdL17PUcuQ&utm_campaign=yelp_api_v3&utm_medium=api_v3_business_search&utm_source=nKnicr6HZ6bapdL17PUcuQ", "review_count": 94, "categories": [{"alias": "cannabisdispensaries", "title": "Cannabis Dispensaries"}], "rating": 4.0, "coordinates": {"latitude": 34.09284, "longitude": -118.28034}, "transactions": [], "price": "$$", "location": {"address1": "4001 Sunset Blvd", "address2": "", "address3": null, "city": "Los Angeles", "zip_code": "90029", "country": "US", "state": "CA", "display_address": ["4001 Sunset Blvd", "Los Angeles, CA 90029"]}, "phone": "+13235223024", "display_phone": "(323) 522-3024", "distance": 5128.4133419591735}, {"id": "ZDQQEUaol-3C_z3mNPsG2Q", "alias": "the-buddha-company-arts-district-los-angeles", "name": "The Buddha Company - Arts District", "image_url": "https://s3-media1.fl.yelpcdn.com/bphoto/goDSCfVcmbPtHBIuD6abrw/o.jpg", "is_closed": false, "url": "https://www.yelp.com/biz/the-buddha-company-arts-district-los-angeles?adjust_creative=nKnicr6HZ6bapdL17PUcuQ&utm_campaign=yelp_api_v3&utm_medium=api_v3_business_search&utm_source=nKnicr6HZ6bapdL17PUcuQ", "review_count": 51, "categories": [{"alias": "cannabisdispensaries", "title": "Cannabis Dispensaries"}], "rating": 4.5, "coordinates": {"latitude": 34.030514, "longitude": -118.230839}, "transactions": [], "price": "$$", "location": {"address1": "2038 Sacramento St", "address2": null, "address3": "", "city": "Los Angeles", "zip_code": "90021", "country": "US", "state": "CA", "display_address": ["2038 Sacramento St", "Los Angeles, CA 90021"]}, "phone": "+12136283144", "display_phone": "(213) 628-3144", "distance": 9029.361448898813}, {"id": "Bn2zqry3Q2ax0t7Ep3f4Jg", "alias": "sweet-flower-los-angeles-5", "name": "Sweet Flower", "image_url": "https://s3-media1.fl.yelpcdn.com/bphoto/uonMLT6S-Pf0KnFZpmLQ0g/o.jpg", "is_closed": false, "url": "https://www.yelp.com/biz/sweet-flower-los-angeles-5?adjust_creative=nKnicr6HZ6bapdL17PUcuQ&utm_campaign=yelp_api_v3&utm_medium=api_v3_business_search&utm_source=nKnicr6HZ6bapdL17PUcuQ", "review_count": 102, "categories": [{"alias": "cannabisdispensaries", "title": "Cannabis Dispensaries"}], "rating": 4.5, "coordinates": {"latitude": 34.14178817, "longitude": -118.387948}, "transactions": [], "price": "$$", "location": {"address1": "11705 Ventura Blvd", "address2": null, "address3": "", "city": "Los Angeles", "zip_code": "91604", "country": "US", "state": "CA", "display_address": ["11705 Ventura Blvd", "Los Angeles, CA 91604"]}, "phone": "+18187946420", "display_phone": "(818) 794-6420", "distance": 10827.462372911581}, {"id": "twNb-m4pHOwTnyHG3hGZnQ", "alias": "mmd-north-hollywood-los-angeles-2", "name": "MMD - North Hollywood", "image_url": "https://s3-media1.fl.yelpcdn.com/bphoto/oc8yvCF1FmtCliZIgpjnzA/o.jpg", "is_closed": false, "url": "https://www.yelp.com/biz/mmd-north-hollywood-los-angeles-2?adjust_creative=nKnicr6HZ6bapdL17PUcuQ&utm_campaign=yelp_api_v3&utm_medium=api_v3_business_search&utm_source=nKnicr6HZ6bapdL17PUcuQ", "review_count": 79, "categories": [{"alias": "cannabisdispensaries", "title": "Cannabis Dispensaries"}], "rating": 4.5, "coordinates": {"latitude": 34.1561, "longitude": -118.36995}, "transactions": [], "location": {"address1": "4720 Vineland Ave", "address2": "", "address3": "", "city": "Los Angeles", "zip_code": "91602", "country": "US", "state": "CA", "display_address": ["4720 Vineland Ave", "Los Angeles, CA 91602"]}, "phone": "+18189806337", "display_phone": "(818) 980-6337", "distance": 11421.242602966275}, {"id": "OJkaRKxv0x5uZNJ-FXX8aw", "alias": "pot-valet-santa-monica-6", "name": "Pot Valet", "image_url": "https://s3-media1.fl.yelpcdn.com/bphoto/PmxsDK-Jb19IW4SzFLnqag/o.jpg", "is_closed": false, "url": "https://www.yelp.com/biz/pot-valet-santa-monica-6?adjust_creative=nKnicr6HZ6bapdL17PUcuQ&utm_campaign=yelp_api_v3&utm_medium=api_v3_business_search&utm_source=nKnicr6HZ6bapdL17PUcuQ", "review_count": 94, "categories": [{"alias": "cannabisdispensaries", "title": "Cannabis Dispensaries"}], "rating": 4.0, "coordinates": {"latitude": 34.0115966796875, "longitude": -118.468780517578}, "transactions": [], "price": "$$", "location": {"address1": "", "address2": "", "address3": "", "city": "Santa Monica", "zip_code": "90405", "country": "US", "state": "CA", "display_address": ["Santa Monica, CA 90405"]}, "phone": "+18003571314", "display_phone": "(800) 357-1314", "distance": 14515.944272674924}, {"id": "qw07NK204oP9T2TZ2q1u7A", "alias": "the-healing-touch-encino", "name": "The Healing Touch", "image_url": "https://s3-media3.fl.yelpcdn.com/bphoto/e0LmpcBMyf4HWUhe9nltMg/o.jpg", "is_closed": false, "url": "https://www.yelp.com/biz/the-healing-touch-encino?adjust_creative=nKnicr6HZ6bapdL17PUcuQ&utm_campaign=yelp_api_v3&utm_medium=api_v3_business_search&utm_source=nKnicr6HZ6bapdL17PUcuQ", "review_count": 86, "categories": [{"alias": "cannabisdispensaries", "title": "Cannabis Dispensaries"}], "rating": 4.5, "coordinates": {"latitude": 34.164894, "longitude": -118.524812}, "transactions": [], "location": {"address1": "18013 Ventura Blvd", "address2": "", "address3": null, "city": "Encino", "zip_code": "91316", "country": "US", "state": "CA", "display_address": ["18013 Ventura Blvd", "Encino, CA 91316"]}, "phone": "+18188811462", "display_phone": "(818) 881-1462", "distance": 21972.68553341631}, {"id": "BPJkD6Ud4E95oI0bSRb0rA", "alias": "green-door-west-delivery-los-angeles-2", "name": "Green Door West Delivery", "image_url": "https://s3-media3.fl.yelpcdn.com/bphoto/25MhTkwg0lHYs9ZRDVh_SA/o.jpg", "is_closed": false, "url": "https://www.yelp.com/biz/green-door-west-delivery-los-angeles-2?adjust_creative=nKnicr6HZ6bapdL17PUcuQ&utm_campaign=yelp_api_v3&utm_medium=api_v3_business_search&utm_source=nKnicr6HZ6bapdL17PUcuQ", "review_count": 51, "categories": [{"alias": "cannabisdispensaries", "title": "Cannabis Dispensaries"}], "rating": 4.5, "coordinates": {"latitude": 34.03722, "longitude": -118.42127}, "transactions": [], "price": "$$", "location": {"address1": null, "address2": null, "address3": "", "city": "Los Angeles", "zip_code": "90064", "country": "US", "state": "CA", "display_address": ["Los Angeles, CA 90064"]}, "phone": "+14242725232", "display_phone": "(424) 272-5232", "distance": 9627.652417125457}, {"id": "1aGq-IuXspR7te9rYElipw", "alias": "medmen-los-angeles-beverly-hills-los-angeles-4", "name": "MedMen Los Angeles - Beverly Hills", "image_url": "https://s3-media1.fl.yelpcdn.com/bphoto/Gm79P7FXZNMNnuvIMsAcGQ/o.jpg", "is_closed": false, "url": "https://www.yelp.com/biz/medmen-los-angeles-beverly-hills-los-angeles-4?adjust_creative=nKnicr6HZ6bapdL17PUcuQ&utm_campaign=yelp_api_v3&utm_medium=api_v3_business_search&utm_source=nKnicr6HZ6bapdL17PUcuQ", "review_count": 132, "categories": [{"alias": "cannabisdispensaries", "title": "Cannabis Dispensaries"}], "rating": 4.0, "coordinates": {"latitude": 34.0746620981703, "longitude": -118.383718578289}, "transactions": [], "price": "$$", "location": {"address1": "110 S Robertson Blvd", "address2": "", "address3": null, "city": "Los Angeles", "zip_code": "90048", "country": "US", "state": "CA", "display_address": ["110 S Robertson Blvd", "Los Angeles, CA 90048"]}, "phone": "+13235791456", "display_phone": "(323) 579-1456", "distance": 5923.125887552674}, {"id": "NlqQVZhiKYT2fUB6UXfs3Q", "alias": "the-green-easy-los-angeles-7", "name": "The Green Easy", "image_url": "https://s3-media2.fl.yelpcdn.com/bphoto/gRgcXgTzujXOwM0EEl8d5Q/o.jpg", "is_closed": false, "url": "https://www.yelp.com/biz/the-green-easy-los-angeles-7?adjust_creative=nKnicr6HZ6bapdL17PUcuQ&utm_campaign=yelp_api_v3&utm_medium=api_v3_business_search&utm_source=nKnicr6HZ6bapdL17PUcuQ", "review_count": 65, "categories": [{"alias": "cannabisdispensaries", "title": "Cannabis Dispensaries"}], "rating": 4.0, "coordinates": {"latitude": 34.076221, "longitude": -118.370504}, "transactions": [], "location": {"address1": "8311 Beverly Blvd", "address2": "", "address3": "", "city": "Los Angeles", "zip_code": "90048", "country": "US", "state": "CA", "display_address": ["8311 Beverly Blvd", "Los Angeles, CA 90048"]}, "phone": "+13234243035", "display_phone": "(323) 424-3035", "distance": 4808.354065604685}, {"id": "7CBGsZxPoOdmTS3zRhQR3w", "alias": "nugg-los-angeles-3", "name": "Nugg", "image_url": "https://s3-media1.fl.yelpcdn.com/bphoto/fyEGwMV372d5bSsgw_4zlw/o.jpg", "is_closed": false, "url": "https://www.yelp.com/biz/nugg-los-angeles-3?adjust_creative=nKnicr6HZ6bapdL17PUcuQ&utm_campaign=yelp_api_v3&utm_medium=api_v3_business_search&utm_source=nKnicr6HZ6bapdL17PUcuQ", "review_count": 158, "categories": [{"alias": "cannabisdispensaries", "title": "Cannabis Dispensaries"}], "rating": 3.5, "coordinates": {"latitude": 34.029109954834, "longitude": -118.283065795898}, "transactions": [], "location": {"address1": "", "address2": "", "address3": "", "city": "Los Angeles", "zip_code": "90007", "country": "US", "state": "CA", "display_address": ["Los Angeles, CA 90007"]}, "phone": "+13235106844", "display_phone": "(323) 510-6844", "distance": 4906.111148449467}, {"id": "Lw1YeZef7X4EhSIpbM6NyQ", "alias": "green-angel-sherman-oaks", "name": "Green Angel", "image_url": "https://s3-media2.fl.yelpcdn.com/bphoto/AReyUF44Ssqv1fTUIfEkPg/o.jpg", "is_closed": false, "url": "https://www.yelp.com/biz/green-angel-sherman-oaks?adjust_creative=nKnicr6HZ6bapdL17PUcuQ&utm_campaign=yelp_api_v3&utm_medium=api_v3_business_search&utm_source=nKnicr6HZ6bapdL17PUcuQ", "review_count": 63, "categories": [{"alias": "cannabisdispensaries", "title": "Cannabis Dispensaries"}], "rating": 4.5, "coordinates": {"latitude": 34.148844, "longitude": -118.437367}, "transactions": [], "location": {"address1": "14000 Ventura Blvd", "address2": null, "address3": "", "city": "Sherman Oaks", "zip_code": "91423", "country": "US", "state": "CA", "display_address": ["14000 Ventura Blvd", "Sherman Oaks, CA 91423"]}, "phone": "+18186460221", "display_phone": "(818) 646-0221", "distance": 14428.182194208119}, {"id": "dqDSU0D_hy9p93fhv2up1A", "alias": "cac-venice-venice", "name": "CAC Venice", "image_url": "https://s3-media2.fl.yelpcdn.com/bphoto/2WqfdEfVwtYNWumvsm7pxA/o.jpg", "is_closed": false, "url": "https://www.yelp.com/biz/cac-venice-venice?adjust_creative=nKnicr6HZ6bapdL17PUcuQ&utm_campaign=yelp_api_v3&utm_medium=api_v3_business_search&utm_source=nKnicr6HZ6bapdL17PUcuQ", "review_count": 46, "categories": [{"alias": "cannabisdispensaries", "title": "Cannabis Dispensaries"}], "rating": 4.5, "coordinates": {"latitude": 34.0022531, "longitude": -118.4691969}, "transactions": [], "location": {"address1": "122 Lincoln Blvd", "address2": "Ste 204", "address3": "", "city": "Venice", "zip_code": "90291", "country": "US", "state": "CA", "display_address": ["122 Lincoln Blvd", "Ste 204", "Venice, CA 90291"]}, "phone": "+14247448507", "display_phone": "(424) 744-8507", "distance": 15135.102795854338}, {"id": "GRjNX20_BKtOsYsHAW6eWw", "alias": "pine-x-delivery-manhattan-beach", "name": "Pine X Delivery", "image_url": "https://s3-media4.fl.yelpcdn.com/bphoto/HahB-1PsLbgBPTCwy-gGcw/o.jpg", "is_closed": false, "url": "https://www.yelp.com/biz/pine-x-delivery-manhattan-beach?adjust_creative=nKnicr6HZ6bapdL17PUcuQ&utm_campaign=yelp_api_v3&utm_medium=api_v3_business_search&utm_source=nKnicr6HZ6bapdL17PUcuQ", "review_count": 27, "categories": [{"alias": "cannabisdispensaries", "title": "Cannabis Dispensaries"}, {"alias": "couriers", "title": "Couriers & Delivery Services"}], "rating": 5.0, "coordinates": {"latitude": 33.886116027832, "longitude": -118.405311584473}, "transactions": [], "price": "$$", "location": {"address1": "", "address2": "", "address3": "", "city": "Manhattan Beach", "zip_code": "90266", "country": "US", "state": "CA", "display_address": ["Manhattan Beach, CA 90266"]}, "phone": "+13102940217", "display_phone": "(310) 294-0217", "distance": 21327.83632030378}, {"id": "Ky8QzhTCc49G8aiA4AbxFA", "alias": "sun-valley-caregivers-sun-valley", "name": "Sun Valley Caregivers", "image_url": "https://s3-media3.fl.yelpcdn.com/bphoto/L8j_L_QbQOXl6MqnFVUwmQ/o.jpg", "is_closed": false, "url": "https://www.yelp.com/biz/sun-valley-caregivers-sun-valley?adjust_creative=nKnicr6HZ6bapdL17PUcuQ&utm_campaign=yelp_api_v3&utm_medium=api_v3_business_search&utm_source=nKnicr6HZ6bapdL17PUcuQ", "review_count": 34, "categories": [{"alias": "cannabisdispensaries", "title": "Cannabis Dispensaries"}], "rating": 4.5, "coordinates": {"latitude": 34.2380086, "longitude": -118.3698842}, "transactions": [], "price": "$", "location": {"address1": "11000 Randall St", "address2": "Ste E", "address3": null, "city": "Sun Valley", "zip_code": "91352", "country": "US", "state": "CA", "display_address": ["11000 Randall St", "Ste E", "Sun Valley, CA 91352"]}, "phone": "+18185042661", "display_phone": "(818) 504-2661", "distance": 20055.551415045196}, {"id": "2RJGP-GeLAMNyYY0byO1Zw", "alias": "420-king-marijuana-delivery-hollywood-4", "name": "420 King Marijuana Delivery", "image_url": "https://s3-media3.fl.yelpcdn.com/bphoto/aUXcGE3fi5tVHyqySaRHog/o.jpg", "is_closed": false, "url": "https://www.yelp.com/biz/420-king-marijuana-delivery-hollywood-4?adjust_creative=nKnicr6HZ6bapdL17PUcuQ&utm_campaign=yelp_api_v3&utm_medium=api_v3_business_search&utm_source=nKnicr6HZ6bapdL17PUcuQ", "review_count": 52, "categories": [{"alias": "cannabisdispensaries", "title": "Cannabis Dispensaries"}], "rating": 4.0, "coordinates": {"latitude": 34.0941333563786, "longitude": -118.339812863159}, "transactions": [], "location": {"address1": "", "address2": null, "address3": "", "city": "Hollywood", "zip_code": "90027", "country": "US", "state": "CA", "display_address": ["Hollywood, CA 90027"]}, "phone": "+13235735431", "display_phone": "(323) 573-5431", "distance": 3997.110836889074}, {"id": "c4eC2wY_RRNgIAN4wwurIw", "alias": "kush-alley-north-hills", "name": "Kush Alley", "image_url": "https://s3-media1.fl.yelpcdn.com/bphoto/VFMlD44njXNZekORd2JZhg/o.jpg", "is_closed": false, "url": "https://www.yelp.com/biz/kush-alley-north-hills?adjust_creative=nKnicr6HZ6bapdL17PUcuQ&utm_campaign=yelp_api_v3&utm_medium=api_v3_business_search&utm_source=nKnicr6HZ6bapdL17PUcuQ", "review_count": 65, "categories": [{"alias": "cannabisdispensaries", "title": "Cannabis Dispensaries"}], "rating": 4.5, "coordinates": {"latitude": 34.222696104142, "longitude": -118.497881285285}, "transactions": [], "price": "$$", "location": {"address1": "16733 Schoenborn St", "address2": null, "address3": "", "city": "North Hills", "zip_code": "91343", "country": "US", "state": "CA", "display_address": ["16733 Schoenborn St", "North Hills, CA 91343"]}, "phone": "+18188109642", "display_phone": "(818) 810-9642", "distance": 24181.93315603352}, {"id": "MEC3TDrwpdUQDY01qkSqxw", "alias": "golden-leaf-scientifics-santa-monica", "name": "Golden Leaf Scientifics", "image_url": "https://s3-media1.fl.yelpcdn.com/bphoto/Tgnk67QByltwYJ-KSyNfcA/o.jpg", "is_closed": false, "url": "https://www.yelp.com/biz/golden-leaf-scientifics-santa-monica?adjust_creative=nKnicr6HZ6bapdL17PUcuQ&utm_campaign=yelp_api_v3&utm_medium=api_v3_business_search&utm_source=nKnicr6HZ6bapdL17PUcuQ", "review_count": 119, "categories": [{"alias": "cannabisdispensaries", "title": "Cannabis Dispensaries"}], "rating": 4.0, "coordinates": {"latitude": 34.0053558349609, "longitude": -118.479789733887}, "transactions": [], "price": "$$", "location": {"address1": null, "address2": null, "address3": "", "city": "Santa Monica", "zip_code": "90405", "country": "US", "state": "CA", "display_address": ["Santa Monica, CA 90405"]}, "phone": "+18182321982", "display_phone": "(818) 232-1982", "distance": 14515.944272674924}, {"id": "8YBWDDVzqWllyKfhcxG-xA", "alias": "los-angeles-patients-and-caregivers-group-west-hollywood", "name": "Los Angeles Patients & Caregivers Group", "image_url": "https://s3-media1.fl.yelpcdn.com/bphoto/EGsuaPEAY1snTheiPd1dqA/o.jpg", "is_closed": false, "url": "https://www.yelp.com/biz/los-angeles-patients-and-caregivers-group-west-hollywood?adjust_creative=nKnicr6HZ6bapdL17PUcuQ&utm_campaign=yelp_api_v3&utm_medium=api_v3_business_search&utm_source=nKnicr6HZ6bapdL17PUcuQ", "review_count": 98, "categories": [{"alias": "cannabisdispensaries", "title": "Cannabis Dispensaries"}, {"alias": "vitaminssupplements", "title": "Vitamins & Supplements"}], "rating": 4.0, "coordinates": {"latitude": 34.0907688800547, "longitude": -118.346886039038}, "transactions": [], "price": "$$", "location": {"address1": "7213 Santa Monica Blvd", "address2": "", "address3": "", "city": "West Hollywood", "zip_code": "90046", "country": "US", "state": "CA", "display_address": ["7213 Santa Monica Blvd", "West Hollywood, CA 90046"]}, "phone": "+13238826033", "display_phone": "(323) 882-6033", "distance": 4002.367578716936}, {"id": "a5_rGT2cSbiO2HpEyxebug", "alias": "mmd-hollywood-hollywood", "name": "MMD HOLLYWOOD", "image_url": "https://s3-media1.fl.yelpcdn.com/bphoto/VYeBW2umNxsQFZ9oqx2Nvw/o.jpg", "is_closed": false, "url": "https://www.yelp.com/biz/mmd-hollywood-hollywood?adjust_creative=nKnicr6HZ6bapdL17PUcuQ&utm_campaign=yelp_api_v3&utm_medium=api_v3_business_search&utm_source=nKnicr6HZ6bapdL17PUcuQ", "review_count": 82, "categories": [{"alias": "cannabisdispensaries", "title": "Cannabis Dispensaries"}], "rating": 4.0, "coordinates": {"latitude": 34.0984988, "longitude": -118.3297582}, "transactions": [], "location": {"address1": "1515 N Cahuenga Blvd", "address2": null, "address3": "", "city": "Hollywood", "zip_code": "90028", "country": "US", "state": "CA", "display_address": ["1515 N Cahuenga Blvd", "Hollywood, CA 90028"]}, "phone": "+18774205874", "display_phone": "(877) 420-5874", "distance": 4176.012362424061}, {"id": "n0Osrnd1JISjO2uo4iGieg", "alias": "project-cannabis-los-angeles-2", "name": "Project Cannabis", "image_url": "https://s3-media1.fl.yelpcdn.com/bphoto/biRbrXqJCECEuPV-riW0RA/o.jpg", "is_closed": false, "url": "https://www.yelp.com/biz/project-cannabis-los-angeles-2?adjust_creative=nKnicr6HZ6bapdL17PUcuQ&utm_campaign=yelp_api_v3&utm_medium=api_v3_business_search&utm_source=nKnicr6HZ6bapdL17PUcuQ", "review_count": 97, "categories": [{"alias": "cannabisdispensaries", "title": "Cannabis Dispensaries"}, {"alias": "cannabiscollective", "title": "Cannabis Collective"}], "rating": 4.0, "coordinates": {"latitude": 34.164773, "longitude": -118.367368}, "transactions": [], "price": "$$", "location": {"address1": "10842 W Magnolia Blvd", "address2": null, "address3": "", "city": "Los Angeles", "zip_code": "91601", "country": "US", "state": "CA", "display_address": ["10842 W Magnolia Blvd", "Los Angeles, CA 91601"]}, "phone": "+18183222177", "display_phone": "(818) 322-2177", "distance": 12229.651294166977}]